City,Lat,Lng,Max Temp,Humidity,Cloudiness,Wind Speed,Country,Date
Salalah,17.0151,54.0924,73.49,60,0,5.75,OM,1635133092
Alihe,50.5667,123.7167,49.14,43,8,6.06,CN,1635133293
Egvekinot,66.3167,-179.1667,2.08,87,20,7.31,RU,1635133180
Vaini,-21.2,-175.2,78.96,78,20,4.61,TO,1635133059
Yellowknife,62.456,-114.3525,41.41,99,75,13.8,CA,1635133294
Anloga,5.7947,0.8973,79.02,84,10,8.43,GH,1635133294
Asău,46.4333,26.4,37.76,93,32,1.97,RO,1635133295
Bay Roberts,47.5999,-53.2648,53.44,89,99,13.0,CA,1635133295
Ayagoz,47.9714,80.4392,45.25,30,6,9.42,KZ,1635133064
Mana,5.6592,-53.7767,78.19,89,100,9.53,GF,1635133296
Port Elizabeth,-33.918,25.5701,52.09,93,0,5.75,ZA,1635133028
Punta Arenas,-53.15,-70.9167,33.91,93,90,13.8,CL,1635133296
New Norfolk,-42.7826,147.0587,56.66,59,84,1.99,AU,1635133297
Atuona,-9.8,-139.0333,78.26,71,5,18.48,PF,1635133297
Cherskiy,68.75,161.3,-10.86,96,50,3.0,RU,1635133100
Guerrero Negro,27.9769,-114.0611,65.3,77,0,11.81,MX,1635133033
Norman Wells,65.282,-126.8329,23.04,93,90,5.75,CA,1635133104
Dandong,40.1292,124.3947,59.05,59,50,10.27,CN,1635133230
Charlestown,-32.95,151.6667,82.22,53,5,1.99,AU,1635133022
Mataura,-46.1927,168.8643,67.69,67,95,5.17,NZ,1635133299
Emmett,43.8735,-116.4993,56.88,87,100,16.51,US,1635133299
Ngunguru,-35.6167,174.5,71.17,94,90,7.36,NZ,1635133300
Ahipara,-35.1667,173.1667,65.26,71,8,5.01,NZ,1635133300
Nanortalik,60.1432,-45.2371,32.63,77,94,2.95,GL,1635133077
Provideniya,64.3833,-173.3,24.91,58,0,8.95,RU,1635133095
Ushuaia,-54.8,-68.3,35.26,69,75,33.38,AR,1635133028
Statesboro,32.4488,-81.7832,68.49,88,40,0.0,US,1635133301
Kapaa,22.0752,-159.319,85.98,86,40,1.99,US,1635133302
Barrow,71.2906,-156.7887,26.62,86,90,6.91,US,1635133302
Khatanga,71.9667,102.5,1.63,90,100,15.35,RU,1635133303
Alenquer,-1.9417,-54.7383,77.34,75,80,2.15,BR,1635133303
Hobart,-42.8794,147.3294,57.02,74,75,3.0,AU,1635133271
Jamiltepec,16.2833,-97.8167,69.94,97,89,2.82,MX,1635133304
Port Alfred,-33.5906,26.891,58.01,76,0,10.63,ZA,1635133033
Chui,-33.6971,-53.4616,57.0,62,0,11.88,UY,1635133102
Lata,40.1629,-8.3327,57.81,83,6,2.82,PT,1635133131
Albany,42.6001,-73.9662,50.41,90,99,3.27,US,1635133305
Saskylakh,71.9167,114.0833,-15.21,100,51,2.82,RU,1635133306
Amapá,1.0,-52.0,71.74,99,52,2.1,BR,1635133306
Tornio,65.8481,24.1466,32.02,99,100,12.01,FI,1635133306
Aklavik,68.2191,-135.0107,22.03,96,100,1.14,CA,1635133307
Cabo San Lucas,22.8909,-109.9124,80.51,72,38,6.35,MX,1635133265
Barranca,-10.75,-77.7667,61.25,85,24,8.1,PE,1635133308
Bluff,-46.6,168.3333,56.71,85,100,14.92,NZ,1635133072
Ulaangom,49.9811,92.0667,41.67,47,4,2.46,MN,1635133308
Bucerías,20.75,-105.3333,78.1,89,93,4.34,MX,1635133254
Vallenar,-28.5708,-70.7581,63.7,53,0,3.29,CL,1635133309
Lavrentiya,65.5833,-171.0,21.7,79,100,9.93,RU,1635133309
Lüderitz,-26.6481,15.1594,58.37,72,0,9.8,NA,1635133113
Nizhniy Baskunchak,48.2198,46.8311,42.44,59,97,12.24,RU,1635133310
Inta,66.0317,60.1659,25.74,97,100,9.35,RU,1635133310
Torbay,47.6666,-52.7314,52.68,86,90,29.93,CA,1635133311
Pisco,-13.7,-76.2167,61.02,88,2,14.97,PE,1635132902
Plettenberg Bay,-34.0527,23.3716,53.67,74,0,2.28,ZA,1635133094
Butaritari,3.0707,172.7902,82.26,71,3,2.55,KI,1635133312
Meulaboh,4.1363,96.1285,83.1,69,89,2.93,ID,1635133312
Dmitriyevka,54.75,55.3333,31.55,85,100,2.93,RU,1635133313
Santa Josefa,7.9911,126.03,88.95,64,44,0.81,PH,1635133313
Fort Nelson,58.8053,-122.7002,26.19,93,1,2.3,CA,1635133314
Hermanus,-34.4187,19.2345,52.9,80,0,9.42,ZA,1635133315
Bathsheba,13.2167,-59.5167,81.21,78,40,26.46,BB,1635133151
Castro,-24.7911,-50.0119,55.17,97,94,7.58,BR,1635133079
Kuloy,61.0305,42.4925,25.0,86,14,6.87,RU,1635133315
Oliveira dos Brejinhos,-12.3169,-42.8961,70.27,95,100,4.97,BR,1635133316
Majene,-3.5403,118.9707,85.86,67,59,6.96,ID,1635133316
Qaanaaq,77.484,-69.3632,-4.77,58,0,11.12,GL,1635133317
Balkanabat,39.5108,54.3671,59.32,77,0,1.81,TM,1635133317
Bambous Virieux,-20.3428,57.7575,77.22,73,40,17.27,MU,1635133124
Zhoucheng,35.9122,116.3117,65.8,42,52,9.01,CN,1635133318
Busselton,-33.65,115.3333,60.04,70,77,14.25,AU,1635133318
East London,-33.0153,27.9116,59.94,77,20,6.91,ZA,1635133319
Maceió,-9.6658,-35.7353,76.44,94,20,4.61,BR,1635133319
Half Moon Bay,37.4636,-122.4286,60.35,95,90,1.99,US,1635133320
Avarua,-21.2078,-159.775,77.05,57,90,11.5,CK,1635133083
Severo-Kuril'sk,50.6789,156.125,39.9,64,92,14.14,RU,1635133072
Wewak,-3.5534,143.6268,85.96,65,66,6.73,PG,1635133320
Puerto Ayora,-0.7393,-90.3518,68.56,94,96,4.0,EC,1635133045
Sinnamary,5.3833,-52.95,78.31,89,100,10.18,GF,1635133321
Bétaré Oya,5.6,14.0833,67.12,95,100,3.36,CM,1635133322
Katsuura,35.1333,140.3,67.19,57,78,14.25,JP,1635133322
Chokurdakh,70.6333,147.9167,-3.12,99,100,2.66,RU,1635133323
Tilichiki,60.4667,166.1,15.53,87,91,5.88,RU,1635133132
Guánica,17.9716,-66.908,79.32,86,9,4.0,PR,1635133324
Luganville,-15.5333,167.1667,81.63,78,53,9.01,VU,1635133324
Kyabé,9.4515,18.9449,75.78,81,100,3.58,TD,1635133325
Kieta,-6.2167,155.6333,83.86,71,42,1.88,PG,1635133325
Bambanglipuro,-7.95,110.2833,85.91,60,17,9.69,ID,1635133326
Enid,36.3956,-97.8784,61.02,84,1,1.01,US,1635133326
Thompson,55.7435,-97.8558,28.56,93,40,0.0,CA,1635133327
Beroroha,-21.6667,45.1667,80.1,42,0,3.56,MG,1635133327
Mahajanga,-15.7167,46.3167,77.02,78,20,5.75,MG,1635133328
Kasempa,-13.4584,25.8338,65.7,74,100,4.59,ZM,1635133328
Hinton,53.4001,-117.5857,46.11,86,100,2.39,CA,1635133329
La Vista,41.1839,-96.0311,46.78,95,90,1.01,US,1635133330
Birao,10.2849,22.7882,73.29,56,96,1.34,CF,1635133330
Bethel,41.3712,-73.414,56.55,88,90,0.0,US,1635133161
Arrondissement de Saint-Denis,48.9167,2.3333,51.08,86,90,2.3,FR,1635133331
Carnarvon,-24.8667,113.6333,75.27,53,40,13.8,AU,1635133332
Saint Paul Harbor,57.79,-152.4072,41.47,86,42,5.68,US,1635133140
Nepānagar,21.4667,76.4,77.99,53,0,4.72,IN,1635133332
Upernavik,72.7868,-56.1549,14.56,70,1,6.76,GL,1635133333
Arraial do Cabo,-22.9661,-42.0278,69.78,91,100,18.92,BR,1635133159
Tuktoyaktuk,69.4541,-133.0374,23.0,100,75,6.91,CA,1635133334
Tevaitoa,-16.7833,-151.5,77.22,84,100,11.9,PF,1635133334
Eagan,44.8041,-93.1669,45.52,68,75,3.0,US,1635133210
Saint-Philippe,-21.3585,55.7679,76.48,80,48,16.35,RE,1635133048
Nikolskoye,59.7035,30.7861,36.88,86,100,11.54,RU,1635133335
Hamilton,39.1834,-84.5333,69.93,77,1,1.99,US,1635133100
Boende,-0.2167,20.8667,70.47,99,100,0.69,CD,1635133336
Jamestown,42.097,-79.2353,52.92,99,90,5.01,US,1635133045
Broome,42.2506,-75.833,49.86,88,90,1.01,US,1635133145
Krasnosel'kup,65.7,82.4667,23.09,92,98,18.72,RU,1635133224
Vista Hermosa,19.5167,-99.2167,62.55,69,90,3.44,MX,1635133337
Chipoka,-13.9933,34.5157,79.83,52,19,7.16,MW,1635133337
Laguna,38.421,-121.4238,59.47,96,90,3.0,US,1635133184
Wanning,18.8003,110.3967,77.94,74,100,14.03,CN,1635133114
Tomatlán,19.9333,-105.25,75.63,94,96,2.95,MX,1635133338
Karaton,-6.3424,106.1045,87.96,55,57,1.83,ID,1635133339
Airai,-8.9266,125.4092,81.12,39,93,2.39,TL,1635133137
Cuajinicuilapa,16.4667,-98.4167,74.95,94,72,4.47,MX,1635133339
Hithadhoo,-0.6,73.0833,82.92,73,36,13.27,MV,1635133094
Aksarka,66.5606,67.7975,19.8,89,60,6.62,RU,1635133340
Cedar City,37.6775,-113.0619,58.17,40,1,27.63,US,1635133341
Rikitea,-23.1203,-134.9692,74.64,78,59,16.22,PF,1635133030
Rocha,-34.4833,-54.3333,59.54,49,0,14.41,UY,1635133342
Vila Velha,-20.3297,-40.2925,78.75,83,75,4.61,BR,1635133209
Bredasdorp,-34.5322,20.0403,51.28,87,0,4.61,ZA,1635133343
Tākestān,36.0696,49.6959,42.93,41,0,4.18,IR,1635133343
Galle,6.0367,80.217,83.19,74,94,7.11,LK,1635133344
Hilo,19.7297,-155.09,74.8,91,90,3.44,US,1635132794
Bengkulu,-3.8004,102.2655,76.19,90,100,0.56,ID,1635133344
Mikuni,36.2171,136.1519,58.91,85,100,2.66,JP,1635133345
Atbasar,51.8,68.3333,44.87,47,99,11.16,KZ,1635133345
Hasaki,35.7333,140.8333,66.6,52,63,11.23,JP,1635133195
Schruns,47.0709,9.9475,44.49,100,100,4.32,AT,1635133346
Waipawa,-41.4122,175.5153,63.23,71,39,8.59,NZ,1635133157
Najrān,17.4924,44.1277,57.85,22,8,3.98,SA,1635133347
San Policarpo,12.1791,125.5072,84.22,71,81,5.88,PH,1635133347
Kigorobya,1.6162,31.3089,66.92,88,76,3.4,UG,1635133348
Vardø,70.3705,31.1107,23.2,63,73,10.42,NO,1635133142
Kommunisticheskiy,61.6789,64.4819,29.68,91,100,0.98,RU,1635133348
Domoni,-12.2569,44.5319,79.99,84,50,9.57,KM,1635133349
Santana do Mundaú,-9.1681,-36.2222,73.38,97,60,3.62,BR,1635133349
Geraldton,-28.7667,114.6,63.01,82,75,18.41,AU,1635133080
Zhezkazgan,47.8043,67.7144,44.65,45,100,8.28,KZ,1635133350
High Level,58.5169,-117.136,39.31,100,90,5.75,CA,1635133351
Pimentel,-6.8367,-79.9342,63.03,88,68,12.33,PE,1635133351
Solnechnyy,50.7214,136.6319,49.77,58,0,4.54,RU,1635133352
Kolār,13.1333,78.1333,75.76,76,100,6.89,IN,1635133352
Lebu,-37.6167,-73.65,52.97,93,80,4.05,CL,1635133353
Rawson,-43.3002,-65.1023,59.61,39,100,30.85,AR,1635133175
Ilulissat,69.2167,-51.1,-2.29,74,45,7.63,GL,1635133112
Puksoozero,62.5903,40.6066,25.5,78,33,6.64,RU,1635133353
Muroto-misakicho,33.2833,134.15,57.24,88,100,19.53,JP,1635133354
Bantogon,6.5333,124.0333,83.91,68,73,4.5,PH,1635133354
Serchhīp,23.3,92.8333,71.31,48,4,1.19,IN,1635133355
Kabo,7.6994,18.629,72.12,94,100,3.09,CF,1635133356
Cockburn Town,21.4612,-71.1419,82.89,68,73,19.35,TC,1635133185
Loanhead,55.8795,-3.1587,49.48,84,75,8.01,GB,1635133356
Ilhabela,-23.7781,-45.3581,67.51,87,100,2.01,BR,1635133357
Kutum,14.2,24.6667,70.11,30,6,9.66,SD,1635133101
Kamaishi,39.2667,141.8833,61.75,58,54,11.27,JP,1635133357
Lakatoro,-16.0999,167.4164,82.24,74,25,8.46,VU,1635133358
Blagoyevo,63.3667,47.9167,27.18,82,85,10.09,RU,1635133358
Malakal,9.5334,31.6605,74.01,54,72,1.5,SS,1635133359
Hirara,24.8,125.2833,82.26,69,20,14.97,JP,1635133359
Karratha,-20.7377,116.8463,93.2,25,0,15.17,AU,1635133167
Dwārka,22.2394,68.9678,81.1,47,4,5.44,IN,1635133360
Tiksi,71.6872,128.8694,-0.18,99,95,3.18,RU,1635133097
Namatanai,-3.6667,152.4333,84.76,67,46,5.84,PG,1635133360
Ballina,-28.8667,153.5667,70.79,91,90,6.91,AU,1635133361
Flin Flon,54.7682,-101.865,36.43,80,6,9.95,CA,1635133361
Asnæs,55.8123,11.5013,42.96,89,7,10.4,DK,1635133362
Marsá Maţrūḩ,31.3525,27.2453,61.0,100,40,4.61,EG,1635133362
Skibbereen,51.55,-9.2667,46.2,81,46,14.2,IE,1635133363
Darnah,32.767,22.6367,72.32,55,100,12.39,LY,1635133363
Tcholliré,8.4022,14.1698,72.86,82,53,3.06,CM,1635133364
Manaus,-3.1019,-60.025,82.89,78,0,6.91,BR,1635132854
Omsukchan,62.5333,155.8,16.75,95,100,6.15,RU,1635133364
Dikson,73.5069,80.5464,11.89,88,100,18.68,RU,1635133365
Ottumwa,41.02,-92.4113,50.95,63,100,7.0,US,1635133365
Kitimat,54.0524,-128.6534,48.9,65,100,1.01,CA,1635133366
Xiangfan,32.0422,112.1448,67.37,41,100,4.07,CN,1635133366
Vila Franca do Campo,37.7167,-25.4333,63.01,82,2,4.34,PT,1635133150
Riyadh,24.6877,46.7219,66.34,26,0,3.78,SA,1635133201
Pevek,69.7008,170.3133,6.71,93,100,5.17,RU,1635133367
Narsaq,60.9167,-46.05,30.42,44,5,6.49,GL,1635133157
Leeton,-34.5667,146.4,67.91,32,0,12.66,AU,1635133368
Kununurra,-15.7667,128.7333,93.18,46,51,5.75,AU,1635133265
Monte Alegre,-2.0078,-54.0692,76.8,77,34,2.75,BR,1635133368
Angoche,-16.2325,39.9086,78.55,84,4,8.05,MZ,1635133369
Visnes,59.3556,5.2242,52.21,93,75,18.41,NO,1635133369
Nishihara,26.1842,127.7558,80.65,72,40,12.66,JP,1635133369
Ponta do Sol,32.6667,-17.1,68.72,61,60,8.1,PT,1635133070
Itupiranga,-5.1347,-49.3267,75.51,93,64,0.38,BR,1635133370
Raudeberg,61.9875,5.1352,52.2,94,100,13.0,NO,1635133370
Smidovich,48.6,133.8167,55.72,35,0,12.08,RU,1635133371
Leningradskiy,69.3833,178.4167,1.94,94,91,7.27,RU,1635133371
Tasiilaq,65.6145,-37.6368,30.36,85,100,47.53,GL,1635133123
Cape Town,-33.9258,18.4232,58.1,69,0,4.0,ZA,1635133165
Wayland,42.3626,-71.3615,52.39,79,75,0.0,US,1635133372
Shimoda,34.6667,138.95,64.76,69,100,15.14,JP,1635133093
Colares,38.7992,-9.4469,62.33,76,99,5.01,PT,1635133373
Bilibino,68.0546,166.4372,-16.13,98,20,3.44,RU,1635133373
Coquimbo,-29.9533,-71.3436,56.93,88,0,2.3,CL,1635133090
Hilton Head,32.2163,-80.7526,76.98,88,20,4.61,US,1635133310
Ankazobe,-18.3167,47.1167,68.41,61,10,4.79,MG,1635133374
Qaqortoq,60.7167,-46.0333,30.7,46,2,6.76,GL,1635133375
Waingapu,-9.6567,120.2641,87.94,62,97,11.01,ID,1635133133
Marzuq,14.4,46.4667,71.74,21,3,1.16,YE,1635133375
Lompoc,34.6391,-120.4579,62.78,85,90,4.61,US,1635133376
Tual,-5.6667,132.75,82.4,73,93,1.86,ID,1635133376
Kyren,51.6828,102.1408,43.27,52,62,2.73,RU,1635133377
Sumbawanga,-7.9667,31.6167,64.8,52,100,4.14,TZ,1635133377
Itarema,-2.9248,-39.9167,78.73,75,5,13.71,BR,1635133378
San Patricio,28.017,-97.5169,80.89,83,0,10.4,US,1635133207
San Diego de Los Baños,22.6467,-83.3697,75.72,95,100,4.05,CU,1635133378
Yangambi,0.8102,24.4336,69.35,98,100,2.04,CD,1635133379
Okato,-39.2,173.8833,65.43,89,74,9.17,NZ,1635133379
Sitka,57.0531,-135.33,40.89,65,40,0.0,US,1635133379
Sindou,10.6667,-5.1667,73.0,89,21,2.13,BF,1635133380
Pacific Grove,36.6177,-121.9166,65.57,89,100,5.01,US,1635133092
Palmas,-10.2128,-48.3603,76.87,94,75,3.44,BR,1635133380
Rome,43.2128,-75.4557,51.66,85,90,5.75,US,1635133068
San Cristobal,7.7669,-72.225,71.78,96,83,1.45,VE,1635133381
Sittwe,20.15,92.9,82.63,66,45,2.19,MM,1635133382
Thanh Hoa,19.8,105.7667,76.84,58,19,6.24,VN,1635133382
Söderhamn,61.3037,17.0592,50.74,75,100,13.02,SE,1635133383
Marrakesh,31.6315,-8.0083,64.47,48,0,3.44,MA,1635133383
Severo-Yeniseyskiy,60.3725,93.0408,31.51,90,100,7.63,RU,1635133384
Porto-Novo,6.4965,2.6036,78.62,87,15,5.23,BJ,1635133384
Olafsvik,64.8945,-23.7142,40.64,89,100,23.85,IS,1635133093
Kailua,21.4022,-157.7394,80.58,75,75,14.97,US,1635133277
Alofi,-19.0595,-169.9187,80.49,61,22,17.27,NU,1635133097
Bushehr,28.9684,50.8385,80.62,68,0,4.61,IR,1635133385
Kavaratti,10.5669,72.642,81.86,75,99,10.36,IN,1635133169
Gravdal,68.1214,13.5031,39.09,100,75,11.5,NO,1635133126
Hofn,64.2539,-15.2082,42.1,70,100,17.94,IS,1635133108
Tiznit Province,29.5833,-9.5,62.38,63,97,1.83,MA,1635133386
Isangel,-19.55,169.2667,84.31,65,75,0.0,VU,1635132850
Kruisfontein,-34.0033,24.7314,46.89,79,0,3.0,ZA,1635133387
Ojinaga,29.5667,-104.4167,77.41,31,1,9.22,MX,1635133388
Kushiro,42.975,144.3747,59.95,63,20,8.05,JP,1635133388
Novodolinskiy,49.705,72.7047,37.98,47,80,6.98,KZ,1635133388
Coyhaique,-45.5752,-72.0662,46.35,76,90,6.91,CL,1635133389
Shache,38.4167,77.2406,52.61,30,100,4.05,CN,1635133389
Okha,53.5739,142.9478,46.26,76,36,7.92,RU,1635133390
Labytnangi,66.6572,66.4183,18.79,89,99,4.14,RU,1635133390
Ancud,-41.8697,-73.8203,53.42,92,100,18.03,CL,1635133223
Pangkalanbuun,-2.6833,111.6167,90.73,55,44,4.34,ID,1635133337
Gamba,-2.65,10.0,75.9,91,100,4.29,GA,1635133144
Yenagoa,4.9247,6.2642,75.4,94,97,2.01,NG,1635133225
Guangming,45.3333,122.7833,60.12,22,7,10.45,CN,1635133392
Hong Kong,22.2855,114.1577,76.96,72,89,3.0,HK,1635133276
La Rioja,42.25,-2.5,37.49,44,0,5.79,ES,1635133393
Paamiut,61.994,-49.6678,25.68,40,0,12.28,GL,1635133393
Tabou,4.423,-7.3528,76.78,86,100,7.16,CI,1635133166
Marystown,47.1666,-55.1483,50.86,100,100,7.0,CA,1635133394
Fairbanks,64.8378,-147.7164,26.22,89,90,0.0,US,1635133246
Haines Junction,60.7522,-137.5108,22.95,93,78,0.0,CA,1635133395
George Town,5.4112,100.3354,85.89,79,20,1.99,MY,1635133248
Birjand,32.8663,59.2211,50.47,14,75,6.91,IR,1635133395
Halifax,44.6453,-63.5724,46.45,76,4,1.01,CA,1635133396
Ganzhou,28.8184,115.4327,69.42,53,0,5.91,CN,1635133396
Nabire,-3.3667,135.4833,80.96,83,100,2.51,ID,1635133397
Sørland,67.667,12.6934,39.27,95,100,6.31,NO,1635133397
Jardim de Piranhas,-6.3786,-37.3519,79.03,63,28,13.42,BR,1635133397
Bara,10.3744,10.7288,75.18,51,84,2.46,NG,1635133398
Rocky Mountain House,52.3668,-114.9188,46.51,66,100,13.8,CA,1635133398
Nola,40.922,14.5329,64.54,71,70,7.0,IT,1635133399
Saint George,37.1041,-113.5841,66.54,42,1,3.0,US,1635133128
Mahébourg,-20.4081,57.7,77.25,73,40,17.27,MU,1635133399
Lüshunkou,38.8,121.2667,66.42,96,32,14.56,CN,1635133400
Dingle,10.9995,122.6711,87.03,70,74,2.77,PH,1635133401
Ixtapa,20.7,-105.2,75.65,94,91,2.33,MX,1635133401
Quila,24.4228,-107.22,73.69,93,0,3.02,MX,1635133401
Yokadouma,3.5167,15.05,69.12,99,100,1.9,CM,1635133402
Port-Cartier,50.0334,-66.8654,45.75,67,100,10.31,CA,1635133327
Baykit,61.67,96.37,33.19,79,94,10.69,RU,1635133403
Semīrom,31.4167,51.5667,43.86,57,0,1.39,IR,1635133223
Bonfim,3.0833,-59.95,77.85,81,44,7.76,BR,1635133403
San Angelo,31.4638,-100.437,67.1,54,1,1.01,US,1635133404
Sept-Îles,50.2001,-66.3821,46.06,75,75,3.0,CA,1635133202
Henties Bay,-22.116,14.2845,59.86,92,1,3.85,NA,1635133404
Ammon,43.4696,-111.9666,50.83,80,90,1.01,US,1635133405
Svetlaya,46.5389,138.3297,56.95,45,0,8.84,RU,1635133405
Mackay,-21.15,149.2,88.68,58,95,14.97,AU,1635132908
Inírida,3.8653,-67.9239,74.66,97,98,2.3,CO,1635133406
Santiago,-33.4569,-70.6483,67.15,33,20,8.05,CL,1635133276
Tūkrah,32.5341,20.5791,75.94,44,100,9.19,LY,1635133406
Mount Isa,-20.7333,139.5,91.17,29,100,4.61,AU,1635133182
Bloomingdale,27.8936,-82.2404,77.05,94,90,1.01,US,1635133407
Sabaudia,41.3003,13.0282,62.46,60,83,4.03,IT,1635133407
Kamenka,51.3223,42.7678,30.87,80,19,13.31,RU,1635133191
Konibodom,40.2843,70.4426,46.17,22,0,6.87,TJ,1635133408
Merauke,-8.4667,140.3333,85.28,71,77,8.39,ID,1635133408
Iqaluit,63.7506,-68.5145,29.93,92,90,1.99,CA,1635133090
Fazilka,30.4,74.0333,71.71,61,0,5.77,IN,1635133409
Luxor,25.6989,32.6421,66.25,52,0,0.0,EG,1635133409
Prince Rupert,54.3161,-130.3201,55.09,49,99,16.11,CA,1635133282
Port Lincoln,-34.7333,135.8667,60.69,59,1,14.36,AU,1635133174
Grand Gaube,-20.0064,57.6608,77.38,63,78,11.99,MU,1635133410
Kahului,20.8947,-156.47,80.62,81,40,19.57,US,1635133018
Brewster,41.3973,-73.6171,56.16,91,90,0.0,US,1635133411
Dubăsari,47.2631,29.1608,39.29,78,25,3.74,MD,1635133411
Blumenau,-26.9194,-49.0661,65.95,96,89,1.36,BR,1635133412
Tres Arroyos,-38.3739,-60.2798,64.22,34,18,18.07,AR,1635133412
Tessalit,20.1986,1.0114,81.23,23,66,11.21,ML,1635133413
Sulangan,11.1373,123.7228,83.07,74,29,3.11,PH,1635133413
Astoria,46.1879,-123.8313,57.15,61,90,4.0,US,1635133085
Muhafazat Lahij,13.1667,44.5833,76.82,68,7,4.25,YE,1635133414
Jega,12.2175,4.3792,73.47,73,48,2.46,NG,1635133414
Alghero,40.5589,8.3181,62.69,72,0,2.3,IT,1635133415
Naliya,23.2667,68.8333,79.97,48,0,3.58,IN,1635133415
Kimbe,-5.5502,150.1429,85.82,69,38,5.53,PG,1635133416
Sur,22.5667,59.5289,84.52,51,7,9.22,OM,1635133416
Solano,38.2333,-121.9511,59.11,95,90,10.36,US,1635133417
Mount Gambier,-37.8333,140.7667,58.91,55,90,10.36,AU,1635133111
Kiryat Gat,31.61,34.7642,66.81,100,10,4.07,IL,1635133384
Dudinka,69.4058,86.1778,24.98,96,100,13.27,RU,1635133417
Kulhudhuffushi,6.6221,73.07,82.22,76,97,7.02,MV,1635133418
Bonthe,7.5264,-12.505,75.65,93,100,4.7,SL,1635133418
San Jerónimo,-11.9472,-75.2829,53.83,74,71,3.36,PE,1635133419
Necochea,-38.5473,-58.7368,61.03,44,24,19.19,AR,1635133419
Kayes,14.0,-11.0,79.16,67,86,2.01,ML,1635133419
Impfondo,1.6381,18.0667,68.5,98,100,0.6,CG,1635133420
Peniche,39.3558,-9.3811,59.07,93,79,8.34,PT,1635133420
Ambon City,-3.6954,128.1814,87.94,66,20,8.05,ID,1635133421
Gambo,4.6482,22.2633,68.31,99,99,1.05,CF,1635133421
Batagay-Alyta,67.8006,130.4114,11.97,85,99,1.81,RU,1635133098
Ratnagiri,16.9833,73.3,80.01,69,22,6.46,IN,1635133422
Sangamner,19.5667,74.2167,75.94,57,3,5.88,IN,1635133422
Kaitangata,-46.2817,169.8464,57.04,78,83,7.34,NZ,1635133423
Adelanto,34.5828,-117.4092,62.02,68,97,10.92,US,1635133423
Touros,-5.1989,-35.4608,79.7,72,2,13.98,BR,1635133083
Smithers,54.7804,-127.1743,35.92,87,90,3.44,CA,1635133424
Sambava,-14.2667,50.1667,76.32,85,83,10.49,MG,1635133425
Tombouctou,20.0,-3.0,83.01,23,83,9.89,ML,1635133425
Morwell,-38.2333,146.4,63.34,48,94,2.13,AU,1635133425
Nouadhibou,20.931,-17.0347,69.78,73,100,19.57,MR,1635133163
Tuatapere,-46.1333,167.6833,57.9,96,100,3.87,NZ,1635133426
Neuquén,-38.9516,-68.0591,66.09,30,0,14.97,AR,1635133153
Nioro,13.35,-15.75,75.6,92,63,3.85,GM,1635133427
Dedza,-14.3779,34.3332,65.23,47,9,4.27,MW,1635133427
Padang,-0.9492,100.3543,84.25,83,100,2.95,ID,1635133428
Kibaya,-5.3,36.5667,60.13,74,7,2.68,TZ,1635133428
Kyzyl-Suu,42.3414,78.0056,42.06,48,2,1.12,KG,1635133429
Moose Factory,51.2585,-80.6094,37.4,93,90,5.75,CA,1635133429
Sterling,39.0062,-77.4286,64.53,79,1,8.99,US,1635133429
College,64.8569,-147.8028,26.26,89,90,0.0,US,1635133074
Zhangaözen,43.3,52.8,50.38,32,10,4.41,KZ,1635133430
Koplik,42.2136,19.4364,46.33,45,0,4.94,AL,1635133430
Agua Verde,22.9,-106.05,84.13,85,0,7.7,MX,1635133431
São Félix do Xingu,-6.6447,-51.995,71.8,93,64,0.49,BR,1635133098
Punta Alta,-38.8759,-62.0736,65.05,42,53,22.06,AR,1635133432
Klaksvík,62.2266,-6.589,49.12,89,92,22.37,FO,1635133174
Nizwá,22.9333,57.5333,78.67,43,5,3.11,OM,1635133432
Bosaso,11.2842,49.1816,80.08,61,5,5.3,SO,1635133433
Makakilo City,21.3469,-158.0858,79.12,73,90,6.91,US,1635133434
Mizhou,35.9947,119.3975,64.96,41,18,7.47,CN,1635133434
Saldanha,-33.0117,17.9442,50.05,74,0,13.33,ZA,1635133129
Pleasanton,37.6624,-121.8747,59.63,95,90,1.01,US,1635133335
Cham,47.1821,8.4636,45.21,90,75,0.0,CH,1635133435
Mar del Plata,-38.0023,-57.5575,63.09,62,0,7.0,AR,1635133349
Pangnirtung,66.1451,-65.7125,19.92,87,98,2.64,CA,1635133436
Hambantota,6.1241,81.1185,84.54,79,20,2.3,LK,1635133436
Kibre Mengist,5.8833,38.9833,56.08,79,22,2.44,ET,1635133437
Bella Union,-30.2752,-57.6007,57.52,52,0,6.64,UY,1635133437
Esperance,-33.8667,121.9,73.24,49,100,15.21,AU,1635133438
Salta,-24.7859,-65.4117,64.69,54,0,1.99,AR,1635133155
Channapatna,12.65,77.2167,77.72,76,91,5.82,IN,1635133438
Carbonia,39.1672,8.5222,61.75,81,99,5.84,IT,1635133224
Polunochnoye,60.8697,60.4153,29.07,96,100,3.18,RU,1635133439
Emerald,-23.5333,148.1667,91.54,31,100,0.0,AU,1635133439
Clyde River,70.4692,-68.5914,16.03,73,75,5.75,CA,1635133138
Kapustin Yar,48.5831,45.7372,39.49,72,49,12.62,RU,1635133440
Ozernovskiy,51.5,156.5167,39.18,70,96,14.65,RU,1635133441
Meylan,45.2199,5.7901,49.51,86,2,3.51,FR,1635133442
Chimbote,-9.0853,-78.5783,61.77,89,27,8.01,PE,1635133442
Codrington,-38.2667,141.9667,55.65,60,64,11.59,AU,1635133166
Shubarshi,48.5872,57.1869,47.32,52,100,7.34,KZ,1635133443
Petropavlovsk-Kamchatskiy,53.0452,158.6483,41.59,39,20,15.66,RU,1635133443
Hokitika,-42.7167,170.9667,61.03,81,98,6.64,NZ,1635133444
Longyearbyen,78.2186,15.6401,21.04,68,75,13.8,SJ,1635133112
Biggar,55.6167,-3.5167,48.9,86,76,14.27,GB,1635133444
Belyy Yar,53.6039,91.3903,48.09,57,0,11.18,RU,1635133445
Buala,-8.145,159.5921,84.36,70,84,0.72,SB,1635133132
Flinders,-34.5833,150.8552,73.8,57,10,9.98,AU,1635133115
Monrovia,6.3005,-10.7969,76.77,94,100,3.44,LR,1635133446
Ribeira Grande,38.5167,-28.7,66.02,72,24,1.63,PT,1635133447
Prince George,53.9166,-122.753,47.64,78,90,8.05,CA,1635133183
Shenjiamen,29.9576,122.298,66.92,75,99,15.32,CN,1635133447
Baisha,26.5222,110.9311,67.75,56,4,3.4,CN,1635133448
Poum,-20.2333,164.0167,75.72,71,19,6.08,NC,1635133230
Sisimiut,66.9395,-53.6735,16.81,77,17,10.27,GL,1635133448
Cap Malheureux,-19.9842,57.6142,77.47,63,74,7.0,MU,1635133449
Chicama,-7.8447,-79.1469,59.54,83,42,6.46,PE,1635133449
Gigmoto,13.7796,124.39,84.24,74,93,3.24,PH,1635133450
Departamento de Maldonado,-34.6667,-54.9167,62.22,53,0,14.83,UY,1635133450
Butte,39.6499,-121.5677,59.4,91,90,9.22,US,1635133451
San Fernando del Valle de Catamarca,-28.4696,-65.7852,67.59,28,0,15.88,AR,1635133451
Adrar,20.5022,-10.0711,78.96,21,4,8.86,MR,1635133452
Sri Aman,1.2376,111.4621,87.85,74,40,0.0,MY,1635133452
São José da Coroa Grande,-8.8978,-35.1478,76.05,83,17,6.6,BR,1635133453
Tateyama,34.9833,139.8667,67.1,56,83,15.75,JP,1635133453
Thinadhoo,0.5333,72.9333,83.44,69,56,14.54,MV,1635133454
Mentougou,39.9392,116.0917,67.01,39,71,3.31,CN,1635133454
Taoudenni,22.6783,-3.9836,80.46,21,21,8.72,ML,1635133455
Saint-Augustin,51.226,-58.6502,38.32,70,100,20.02,CA,1635133164
Teya,60.3778,92.6267,34.92,91,99,6.29,RU,1635133455
Øksfjord,70.2396,22.3479,29.32,91,100,13.87,NO,1635133456
Moindou,-21.6924,165.677,80.55,66,5,11.92,NC,1635133456
Tongchuanshi,35.0806,109.0897,58.96,60,41,4.12,CN,1635133457
Nyrob,60.733,56.7202,28.81,92,100,4.07,RU,1635133457
Wisconsin Rapids,44.3836,-89.8174,46.44,67,75,13.8,US,1635133458
Urbana,40.1106,-88.2073,67.75,94,90,4.61,US,1635133458
Altamont,42.2068,-121.7372,44.44,85,75,1.99,US,1635133459
Oistins,13.0667,-59.5333,80.69,78,40,26.46,BB,1635133459
Wagar,16.1525,36.2032,78.46,68,3,8.97,SD,1635133460
Fortuna,40.5982,-124.1573,52.2,64,100,1.99,US,1635133460
Banda Aceh,5.5577,95.3222,84.0,70,93,3.89,ID,1635133461
Abhā,18.2164,42.5053,53.42,76,0,0.0,SA,1635133266
Hare Bay,48.8499,-54.0148,47.55,88,100,11.45,CA,1635133461
Ketchikan,55.3422,-131.6461,45.07,76,1,5.75,US,1635133462
Carutapera,-1.195,-46.02,78.94,85,17,7.25,BR,1635133462
Arrondissement de Limoges,45.75,1.3333,48.0,93,75,2.3,FR,1635133463
Constitución,-35.3333,-72.4167,55.45,81,0,11.3,CL,1635133256
Broken Hill,-31.95,141.4333,65.91,26,0,12.66,AU,1635133463
Laas,46.6166,10.7002,54.86,25,98,2.48,IT,1635133464
Três Barras,-26.1064,-50.3222,55.71,89,49,4.34,BR,1635133464
Yulara,-25.2406,130.9889,87.64,20,0,10.36,AU,1635133464
Boali,4.8005,18.1275,71.47,94,100,1.39,CF,1635133465
Cidreira,-30.1811,-50.2056,58.57,72,0,6.62,BR,1635133465
Adré,13.4667,22.2,75.07,28,34,13.11,TD,1635133466
Kargat,55.1956,80.2811,46.18,55,100,18.97,RU,1635133466
Haimen,23.1935,116.6142,75.09,63,33,10.71,CN,1635133467
Amnat Charoen,15.9167,104.75,82.38,69,98,16.2,TH,1635133467
Malbork,54.0359,19.0266,39.88,82,38,10.51,PL,1635133468
Alice Springs,-23.7,133.8833,85.55,19,49,6.91,AU,1635133422
Salinópolis,-0.6136,-47.3561,80.26,83,1,11.07,BR,1635133468
Nevşehir,38.9167,34.6667,45.61,66,75,12.66,TR,1635133469
Conde,-7.2597,-34.9075,78.26,83,0,4.61,BR,1635133470
Blind River,46.1834,-82.9582,43.05,85,16,11.21,CA,1635133470
Belmonte,-15.8631,-38.8828,77.5,93,91,6.06,BR,1635133471
Port Hawkesbury,45.6169,-61.3485,49.59,86,90,8.99,CA,1635133471
Nuuk,64.1835,-51.7216,25.41,54,20,20.71,GL,1635133471
Sarh,9.1429,18.3923,75.11,88,0,0.0,TD,1635133472
Skjervøy,70.0311,20.9714,33.21,71,100,23.6,NO,1635133473
San Borja,-14.8167,-66.85,63.99,97,100,2.53,BO,1635133473
Sabha,27.0377,14.4283,73.36,38,45,9.28,LY,1635133177
Fălciu,46.2961,28.1408,37.04,69,5,4.0,RO,1635133474
Coahuayana Viejo,18.7333,-103.6833,77.95,93,100,1.57,MX,1635133474
Bud,39.447,-86.1758,69.89,80,13,18.92,US,1635133474
Umluj,25.0213,37.2685,76.12,56,0,8.05,SA,1635133475
Huai Thalaeng,14.997,102.6475,80.28,71,90,11.21,TH,1635133475
Barra de Tecoanapa,16.5167,-98.75,76.32,92,96,6.17,MX,1635133476
Nizhniy Kuranakh,58.8353,125.4869,38.07,81,97,10.38,RU,1635133476
Inhambane,-23.865,35.3833,74.14,84,100,8.68,MZ,1635133477
Sola,-13.8833,167.55,88.47,70,75,5.75,VU,1635133477
Caruray,10.3094,119.0128,87.39,64,97,3.09,PH,1635133478
Greeley,40.4233,-104.7091,56.98,47,1,4.61,US,1635132931
Marsabit,2.3284,37.9899,64.92,81,34,18.34,KE,1635133478
Les Cayes,18.2,-73.75,78.06,82,68,3.98,HT,1635133479
Daru,-9.0763,143.2092,84.0,75,92,11.65,PG,1635133479
Beloha,-25.1667,45.05,76.15,74,65,6.17,MG,1635133480
Mbandaka,0.0487,18.2603,71.83,93,100,2.15,CD,1635133480
Mahanoro,-19.9,48.8,75.81,88,75,9.44,MG,1635133481
Oxelösund,58.6706,17.1015,42.73,93,75,8.05,SE,1635133481
Kasongo-Lunda,-6.4667,16.8167,69.37,97,59,1.23,CD,1635133481
Avera,33.194,-82.5271,67.51,61,100,5.28,US,1635133482
Pauini,-7.7136,-66.9764,79.38,73,96,0.58,BR,1635133482
Yamada,39.4667,141.95,62.94,56,66,10.02,JP,1635133483
Garoowe,8.4054,48.4845,73.42,75,15,7.23,SO,1635133483
Yarkovo,57.4028,67.0786,40.24,79,25,11.03,RU,1635133483
Santa Maria,-29.6842,-53.8069,51.1,93,0,0.0,BR,1635133309
Vryheid,-27.7695,30.7917,49.87,88,100,2.37,ZA,1635133484
Lagoa,39.05,-27.9833,66.45,73,68,7.09,PT,1635133485
São Filipe,14.8961,-24.4956,77.29,71,51,9.69,CV,1635133485
Vanimo,-2.6741,141.3028,85.8,65,100,8.23,PG,1635133486
Zhigansk,66.7697,123.3711,25.14,90,99,4.88,RU,1635133486
Talnakh,69.4865,88.3972,26.44,97,100,9.82,RU,1635133487
Yangi Marg`ilon,40.4272,71.7189,50.72,40,0,2.3,UZ,1635133487
Umm Kaddadah,13.6017,26.6876,78.76,24,8,17.09,SD,1635133487
Lázaro Cárdenas,17.9583,-102.2,76.93,92,100,10.09,MX,1635133247
Kysyl-Syr,63.8986,122.7617,33.24,92,99,3.8,RU,1635133488
Sabang,5.8933,95.3214,81.46,74,88,4.81,ID,1635133489
Bandarbeyla,9.4942,50.8122,78.73,70,8,2.75,SO,1635133191
Valleyview,55.0667,-117.2859,42.84,75,99,11.5,CA,1635133489
Krishnarājpet,12.655,76.4883,70.97,75,89,7.0,IN,1635133490
Okhotsk,59.3833,143.3,23.95,70,100,6.51,RU,1635133490
Indramayu,-6.3264,108.32,87.51,60,9,9.15,ID,1635133491
Avallon,47.4833,3.9,44.55,86,15,4.74,FR,1635133491
Markova,48.6758,24.4138,33.1,76,17,3.11,UA,1635133491
Tazovsky,67.4667,78.7,21.72,89,99,18.52,RU,1635133492
Evans,33.5337,-82.1307,67.03,70,100,4.29,US,1635133492
Caravelas,-17.7125,-39.2481,76.26,91,100,6.55,BR,1635133493
Mayumba,-3.432,10.6554,76.37,92,100,6.76,GA,1635133493
Evensk,61.95,159.2333,15.13,89,100,6.51,RU,1635133494
Agbor,6.2518,6.1934,72.43,98,71,2.39,NG,1635133494
Bundaberg,-24.85,152.35,80.89,80,40,5.01,AU,1635133495
Korla,41.7597,86.1469,51.21,32,0,5.88,CN,1635133495
Methóni,36.8197,21.7049,65.21,79,100,17.07,GR,1635133495
Nyagan,62.1406,65.3936,31.05,74,100,1.01,RU,1635133496
Martapura,-3.4167,114.85,89.69,62,40,5.75,ID,1635133496
Canutama,-6.5339,-64.3831,73.81,98,41,2.08,BR,1635133497
Palmer,42.1584,-72.3287,51.31,78,90,0.0,US,1635133497
Bukama,-9.2,25.85,68.47,93,100,3.71,CD,1635133498
Masterton,-40.9597,175.6575,69.96,72,63,4.18,NZ,1635133498
Yar-Sale,66.8333,70.8333,22.1,81,46,11.86,RU,1635133499
Bose,45.4612,8.0137,50.25,85,100,1.81,IT,1635133499
Herat Province,34.5,62.0,59.13,18,72,1.99,AF,1635133500
Yauya,-8.9833,-77.3,52.74,76,64,2.48,PE,1635133500
Atambua,-9.1061,124.8925,88.14,53,90,5.44,ID,1635133501
Lahaina,20.8783,-156.6825,80.6,87,39,12.21,US,1635133502
Wangqing,43.3218,129.7634,56.25,38,40,4.25,CN,1635133503
Port Pirie,-33.1833,138.0167,71.69,24,0,10.76,AU,1635133504
Czarnków,52.9021,16.5641,37.26,75,71,7.02,PL,1635133504
Kangaatsiaq,68.3065,-53.4641,16.59,92,100,10.2,GL,1635133505
Port Keats,-14.25,129.55,90.0,56,30,11.18,AU,1635133506
Lensk,60.7253,114.9278,36.57,97,100,9.22,RU,1635133506
Inyonga,-6.7167,32.0667,73.85,42,99,4.27,TZ,1635133507
Sibolga,1.7427,98.7792,84.74,68,82,3.96,ID,1635133507
Stary Sącz,49.5636,20.635,40.84,89,5,5.84,PL,1635133508
San Vicente,-26.6167,-54.1333,49.35,94,0,2.53,AR,1635133508
Humberto de Campos,-2.5983,-43.4611,77.58,86,22,5.91,BR,1635133509
Tadine,-21.55,167.8833,75.06,69,9,11.1,NC,1635133509
Port Hardy,50.6996,-127.4199,53.6,71,75,19.57,CA,1635133510
Bet Shemesh,31.7496,34.9888,64.99,100,4,4.14,IL,1635133510
Beckley,37.7782,-81.1882,63.09,65,1,9.22,US,1635133511
Mahon,39.8885,4.2658,61.36,94,0,6.91,ES,1635133511
Bridlington,54.0831,-0.1919,52.29,90,11,17.2,GB,1635133512
Tura,25.5198,90.2201,77.22,72,3,2.17,IN,1635133512
Mossamedes,-15.1961,12.1522,61.57,86,32,5.37,AO,1635133513
Hualmay,-11.0964,-77.6139,62.11,84,26,9.73,PE,1635133513
Whitehorse,60.7161,-135.0538,29.17,86,40,1.99,CA,1635133513
Rochegda,62.8,43.25,25.88,78,25,7.58,RU,1635133514
Gizo Government Station,-8.103,156.8419,83.48,71,40,2.91,SB,1635133514
Baní,18.2833,-70.3333,74.97,82,17,7.81,DO,1635133515
Botngård,63.7653,9.8111,50.77,87,0,13.8,NO,1635133515
Greeneville,36.1632,-82.831,62.87,81,100,4.12,US,1635133516
Kenitra,34.261,-6.5802,66.72,64,100,2.08,MA,1635133372
Villa María,-32.4075,-63.2402,65.82,47,0,13.06,AR,1635133219
Port Hedland,-20.3167,118.5667,93.25,29,0,12.66,AU,1635133517
Araouane,18.9048,-3.5265,85.44,25,77,9.73,ML,1635133517
Tegul'det,57.3064,88.1667,43.52,89,100,10.04,RU,1635133518
Brae,60.3964,-1.353,51.71,83,88,16.78,GB,1635133518
Banepā,27.6298,85.5214,66.52,77,20,0.0,NP,1635133519
Mahon,39.8885,4.2658,61.36,94,0,6.91,ES,1635133519
Presidencia Roque Sáenz Peña,-26.7852,-60.4388,59.22,55,0,5.68,AR,1635133520
Ordzhonīkīdze,52.4411,61.7408,47.48,89,100,4.32,KZ,1635133520
Bulancak,40.9372,38.2291,51.62,87,75,8.05,TR,1635133521
Iquitos,-3.7481,-73.2472,77.04,88,40,3.44,PE,1635133522
Ures,29.4333,-110.4,77.22,50,1,1.92,MX,1635133522
Sawang Daen Din,17.4753,103.4575,82.18,72,100,5.3,TH,1635133522
Ambatondrazaka,-17.8333,48.4167,70.09,85,98,5.26,MG,1635133523
Gharo,24.7424,67.5856,79.02,30,0,14.27,PK,1635133523
Azángaro,-14.9167,-70.2167,46.33,68,100,6.08,PE,1635133524
Weligama,5.9667,80.4167,84.7,69,95,6.22,LK,1635133524
Zhangjiakou,40.81,114.8794,55.2,41,100,2.59,CN,1635133525
Northam,51.0333,-4.2167,56.08,95,19,10.45,GB,1635133525
Lomovka,53.9194,58.3672,36.52,93,100,1.19,RU,1635133525
Vieste,41.8825,16.175,50.5,62,49,4.94,IT,1635133526
Krasnogorsk,55.8225,37.3181,30.18,93,75,11.18,RU,1635133527
